id,name,type,region,lat,lng,established,members,description,contact,village,commodities,image_url,chairman_name,whatsapp,total_land_ha,annual_production_ton,certifications
g-001,Koperasi Tani Makmur Jaya,Koperasi,Kampar,0.3370,101.4394,2015,120,Koperasi yang berfokus pada budidaya kelapa sawit berkelanjutan dan penyediaan pupuk bersubsidi untuk anggota di wilayah Kampar. Saat ini terus membantu anggotanya mengadopsi prinsip pertanian cerdas iklim.,0812-3456-7890,Tapung,Kelapa Sawit,https://images.unsplash.com/photo-1598440536762-b912aeb7a7b8?q=80&w=600&auto=format&fit=crop,H. Suryanto Wijaya,+6281234567890,450,1200,RSPO | ISPO
g-002,Asosiasi Petani Plasma Siak,Asosiasi,Siak,0.8143,102.0494,2018,85,Wadah perkumpulan petani plasma yang memperjuangkan standar harga panen sawit dan praktik budidaya RSPO. Pengurus aktif mengadakan diskusi penyelesaian hama.,0813-4567-8901,Tualang,Kelapa Sawit,https://images.unsplash.com/photo-1615011666986-e82b3a1a36ac?q=80&w=600&auto=format&fit=crop,Ir. Rahmat Hidayat,+6285367891234,320,870,RSPO
g-003,KUD Bina Usaha Pelalawan,Koperasi,Pelalawan,0.3541,101.8893,2010,250,"Koperasi Unit Desa yang menyediakan layanan simpan pinjam, penjualan hasil kebun kolektif, dan penyuluhan mekanis terpadu.",0821-5678-9012,Pangkalan Kerinci,Kelapa Sawit | Karet,https://images.unsplash.com/photo-1596781216393-27715bd768ad?q=80&w=600&auto=format&fit=crop,Drs. Bambang Sutrisno,+6282198765432,780,2100,RSPO | ISPO | ISCC
g-004,Asosiasi Petani Swadaya Rokan,Asosiasi,Rokan Hulu,0.8519,100.3204,2020,60,Jaringan petani mandiri yang berkomitmen memutus rantai tengkulak dan mendistribusikan hasil panen secara kolektif sesuai best management practices.,0822-6789-0123,Ujung Batu,Kelapa Sawit,https://images.unsplash.com/photo-1555541818-df0de2826cf8?q=80&w=600&auto=format&fit=crop,Agus Permana S.P.,+6281122334455,210,560,ISPO
g-005,Koperasi Agro Lestari,Koperasi,Kampar,0.3210,101.3500,2019,95,"Berkomitmen pada pengelolaan limbah pertanian, sertifikasi ramah lingkungan dan penerapan metodologi penanaman yang direkomendasikan dinas kehutanan.",0852-7890-1234,Minas,Karet | Sawit,https://images.unsplash.com/photo-1621868310321-df6df5014316?q=80&w=600&auto=format&fit=crop,Hendra Kusuma M.M.,+6285598765432,390,980,RSPO | ISPO